[{"postcode":"0200","state":"ACT","zones":["bushfire"],"lat":-35.2777,"lng":149.1189,"locality":"ANU"},{"postcode":"0801","state":"NT","zones":["remote","northern","regional"],"lat":-12.4587,"lng":130.8367,"locality":"DARWIN"},{"postcode":"0803","state":"NT","zones":["remote","northern","regional"],"lat":-12.434,"lng":130.7459,"locality":"WAGAIT BEACH"},{"postcode":"0804","state":"NT","zones":["remote","northern","regional"],"lat":-12.428,"lng":130.8733,"locality":"PARAP"},{"postcode":"0811","state":"NT","zones":["remote","northern","regional"],"lat":-12.3818,"lng":130.8662,"locality":"CASUARINA"},{"postcode":"0813","state":"NT","zones":["remote","northern","regional"],"lat":-12.4048,"lng":130.9161,"locality":"KARAMA"},{"postcode":"0814","state":"NT","zones":["remote","northern","regional"],"lat":-12.3818,"lng":130.8662,"locality":"NIGHTCLIFF"},{"postcode":"0815","state":"NT","zones":["remote","northern","regional"],"lat":-12.3718,"lng":130.869,"locality":"CHARLES DARWIN UNIVERSITY"},{"postcode":"0821","state":"NT","zones":["remote","northern","regional"],"lat":-13.6433,"lng":136.9471,"locality":"WINNELLIE"},{"postcode":"0831","state":"NT","zones":["remote","northern","regional"],"lat":-12.4751,"lng":130.9749,"locality":"PALMERSTON"},{"postcode":"0834","state":"NT","zones":["remote","northern","regional"],"lat":-12.5469,"lng":131.0235,"locality":"VIRGINIA"},{"postcode":"0839","state":"NT","zones":["remote","northern","regional"],"lat":-12.52,"lng":131.0402,"locality":"COOLALINGA"},{"postcode":"0851","state":"NT","zones":["remote","northern","regional"],"lat":-15.7114,"lng":137.0507,"locality":"KATHERINE"},{"postcode":"0861","state":"NT","zones":["remote","northern","regional"],"lat":-18.563,"lng":134.4818,"locality":"BRUNCHILLY"},{"postcode":"0871","state":"NT","zones":["remote","northern","regional"],"lat":-21.9495,"lng":131.2988,"locality":"ALICE SPRINGS"},{"postcode":"0873","state":"NT","zones":["remote","northern","regional","bushfire","disaster"],"lat":-23.7447,"lng":133.905,"locality":"AMOONGUNA"},{"postcode":"0874","state":"NT","zones":["remote","northern","regional","bushfire","disaster"],"lat":-23.685,"lng":133.8999,"locality":"IRLPME"},{"postcode":"0875","state":"NT","zones":["remote","northern","regional","bushfire","disaster"],"lat":-23.6969,"lng":133.8333,"locality":"FLYNN"},{"postcode":"0881","state":"NT","zones":["remote","northern","regional"],"lat":-11.6704,"lng":136.8249,"locality":"NHULUNBUY"},{"postcode":"0906","state":"NT","zones":["remote","northern","regional"],"lat":-13.6433,"lng":136.9471,"locality":"WINNELLIE"},{"postcode":"0907","state":"NT","zones":["remote","northern","regional"],"lat":-13.6433,"lng":136.9471,"locality":"WINNELLIE"},{"postcode":"0909","state":"NT","zones":["remote","northern","regional"],"lat":-12.3718,"lng":130.869,"locality":"CHARLES DARWIN UNIVERSITY"},{"postcode":"2331","state":"NSW","zones":["regional","bushfire","disaster"],"lat":-32.6802,"lng":151.1653,"locality":"SINGLETON MILITARY AREA"},{"postcode":"2348","state":"NSW","zones":["regional"],"lat":-31.2532,"lng":146.921,"locality":"NEW ENGLAND MC"},{"postcode":"2356","state":"NSW","zones":["remote","regional","bushfire","disaster"],"lat":-30.6198,"lng":148.9695,"locality":"GWABEGAR"},{"postcode":"2379","state":"NSW","zones":["regional","disaster"],"lat":-31.1674,"lng":149.7021,"locality":"GOOLHI"},{"postcode":"2387","state":"NSW","zones":["remote","regional","bushfire","disaster"],"lat":-29.7768,"lng":149.0097,"locality":"BULYEROI"},{"postcode":"2398","state":"NSW","zones":["regional","bushfire","disaster"],"lat":-29.7411,"lng":149.7957,"locality":"GURLEY"},{"postcode":"2411","state":"NSW","zones":["regional","bushfire","disaster"],"lat":-29.1312,"lng":150.3079,"locality":"CROPPA CREEK"},{"postcode":"2442","state":"NSW","zones":["regional"],"lat":-31.4352,"lng":152.917,"locality":"KEMPSEY MSC"},{"postcode":"2608","state":"ACT","zones":["bushfire"],"lat":-35.2829,"lng":149.1294,"locality":"CIVIC SQUARE"},{"postcode":"2610","state":"ACT","zones":["bushfire"],"lat":-35.2809,"lng":149.13,"locality":"CANBERRA BC"},{"postcode":"2616","state":"ACT","zones":["bushfire"],"lat":-35.2484,"lng":149.0703,"locality":"BELCONNEN"},{"postcode":"2624","state":"NSW","zones":["regional","bushfire","disaster"],"lat":-36.2096,"lng":148.4292,"locality":"BLUE COW"},{"postcode":"2708","state":"NSW","zones":["regional"],"lat":-35.7299,"lng":145.329,"locality":"ALBURY MSC"},{"postcode":"2734","state":"NSW","zones":["regional","disaster"],"lat":-34.863,"lng":143.4781,"locality":"COOBOOL"},{"postcode":"2817","state":"NSW","zones":["regional","disaster"],"lat":-31.4123,"lng":148.8711,"locality":"TONDERBURINE"},{"postcode":"2818","state":"NSW","zones":["regional","bushfire","disaster"],"lat":-32.4486,"lng":148.7616,"locality":"BENOLONG"},{"postcode":"2822","state":"NSW","zones":["regional","bushfire","disaster"],"lat":-31.9398,"lng":148.594,"locality":"BALLADORAN"},{"postcode":"2826","state":"NSW","zones":["remote","regional","bushfire","disaster"],"lat":-31.9423,"lng":147.5675,"locality":"BOGAN"},{"postcode":"2838","state":"NSW","zones":["remote","regional","bushfire","disaster"],"lat":-29.3107,"lng":147.404,"locality":"GOODOOGA"},{"postcode":"2890","state":"NSW","zones":["regional"],"lat":-32.831,"lng":150.139,"locality":"AUSTRALIAN DEFENCE FORCES"},{"postcode":"2891","state":"NSW","zones":["regional"],"lat":-33.8688,"lng":151.209,"locality":"INTERNATIONAL MC"},{"postcode":"2899","state":"NSW","zones":["remote"],"lat":-36.0842,"lng":146.9288,"locality":"NORFOLK ISLAND"},{"postcode":"2901","state":"ACT","zones":["bushfire"],"lat":-35.4197,"lng":149.069,"locality":"TUGGERANONG DC"},{"postcode":"3213","state":"VIC","zones":["regional","bushfire","disaster"],"lat":-38.0276,"lng":144.2917,"locality":"ANAKIE"},{"postcode":"3234","state":"VIC","zones":["regional","bushfire"],"lat":-38.6492,"lng":143.8258,"locality":"GREY RIVER"},{"postcode":"3271","state":"VIC","zones":["regional","bushfire","disaster"],"lat":-37.8885,"lng":142.9875,"locality":"DARLINGTON"},{"postcode":"3279","state":"VIC","zones":["regional","bushfire"],"lat":-38.2146,"lng":142.6575,"locality":"BALLANGEICH"},{"postcode":"3322","state":"VIC","zones":["regional","bushfire","disaster"],"lat":-38.0213,"lng":143.7433,"locality":"CRESSY"},{"postcode":"3323","state":"VIC","zones":["regional","bushfire","disaster"],"lat":-38.0263,"lng":143.5209,"locality":"BERRYBANK"},{"postcode":"3336","state":"VIC","zones":["bushfire","disaster"],"lat":-37.719,"lng":144.695,"locality":"AINTREE"},{"postcode":"3353","state":"VIC","zones":["regional"],"lat":-37.7778,"lng":144.8357,"locality":"BALLARAT"},{"postcode":"3354","state":"VIC","zones":["regional"],"lat":-37.5609,"lng":143.8672,"locality":"BAKERY HILL"},{"postcode":"3358","state":"VIC","zones":["regional","bushfire","disaster"],"lat":-37.5801,"lng":143.7928,"locality":"WINTER VALLEY"},{"postcode":"3399","state":"VIC","zones":["regional"],"lat":-36.6085,"lng":142.357,"locality":"JUNG"},{"postcode":"3402","state":"VIC","zones":["regional"],"lat":-37.1642,"lng":142.6663,"locality":"HORSHAM"},{"postcode":"3415","state":"VIC","zones":["regional","bushfire"],"lat":-36.3525,"lng":141.3397,"locality":"MIRAM"},{"postcode":"3432","state":"VIC","zones":["regional","bushfire","disaster"],"lat":-37.4485,"lng":144.7926,"locality":"BOLINDA"},{"postcode":"3487","state":"VIC","zones":["regional"],"lat":-35.5156,"lng":142.6161,"locality":"LASCELLES"},{"postcode":"3488","state":"VIC","zones":["regional","bushfire","disaster"],"lat":-35.4474,"lng":142.4355,"locality":"SPEED"},{"postcode":"3489","state":"VIC","zones":["regional","disaster"],"lat":-35.3325,"lng":142.4253,"locality":"TEMPY"},{"postcode":"3502","state":"VIC","zones":["regional"],"lat":-37.9729,"lng":145.2584,"locality":"MILDURA"},{"postcode":"3506","state":"VIC","zones":["remote","regional","disaster"],"lat":-35.2042,"lng":141.3859,"locality":"COWANGIE"},{"postcode":"3529","state":"VIC","zones":["regional","bushfire","disaster"],"lat":-35.8243,"lng":143.2327,"locality":"KALPIENUNG"},{"postcode":"3552","state":"VIC","zones":["regional"],"lat":-36.7643,"lng":144.2786,"locality":"BENDIGO"},{"postcode":"3554","state":"VIC","zones":["regional"],"lat":-36.757,"lng":144.279,"locality":"BENDIGO DC"},{"postcode":"3565","state":"VIC","zones":["regional","disaster"],"lat":-36.1823,"lng":144.5117,"locality":"KOTTA"},{"postcode":"3576","state":"VIC","zones":["regional","disaster"],"lat":-36.128,"lng":143.9175,"locality":"DURHAM OX"},{"postcode":"3583","state":"VIC","zones":["regional","disaster"],"lat":-35.5096,"lng":143.6646,"locality":"TRESCO"},{"postcode":"3599","state":"VIC","zones":["regional","disaster"],"lat":-34.7297,"lng":143.1432,"locality":"BOUNDARY BEND"},{"postcode":"3607","state":"VIC","zones":["regional","bushfire","disaster"],"lat":-36.8397,"lng":145.1798,"locality":"TABILK"},{"postcode":"3619","state":"VIC","zones":["regional"],"lat":-37.6596,"lng":144.9363,"locality":"KYABRAM"},{"postcode":"3632","state":"VIC","zones":["regional"],"lat":-36.5445,"lng":145.6032,"locality":"SHEPPARTON"},{"postcode":"3643","state":"VIC","zones":["regional"],"lat":-35.9554,"lng":145.6319,"locality":"COBRAM"},{"postcode":"3647","state":"VIC","zones":["regional","bushfire","disaster"],"lat":-36.3853,"lng":145.7045,"locality":"DOOKIE COLLEGE"},{"postcode":"3661","state":"VIC","zones":["regional"],"lat":-38.196,"lng":146.5353,"locality":"SEYMOUR"},{"postcode":"3665","state":"VIC","zones":["regional","bushfire","disaster"],"lat":-36.8441,"lng":145.3576,"locality":"LOCKSLEY"},{"postcode":"3671","state":"VIC","zones":["regional"],"lat":-36.3851,"lng":145.4207,"locality":"BENALLA"},{"postcode":"3676","state":"VIC","zones":["regional"],"lat":-36.3412,"lng":146.3386,"locality":"WANGARATTA"},{"postcode":"3689","state":"VIC","zones":["regional"],"lat":-37.6758,"lng":144.9898,"locality":"WODONGA"},{"postcode":"3704","state":"VIC","zones":["regional","bushfire","disaster"],"lat":-36.1326,"lng":147.4934,"locality":"KOETONG"},{"postcode":"3708","state":"VIC","zones":["regional","bushfire","disaster"],"lat":-36.0709,"lng":147.9421,"locality":"TINTALDRA"},{"postcode":"3718","state":"VIC","zones":["regional","bushfire","disaster"],"lat":-37.1441,"lng":145.541,"locality":"MOLESWORTH"},{"postcode":"3724","state":"VIC","zones":["regional"],"lat":-37.0531,"lng":146.0768,"locality":"MANSFIELD"},{"postcode":"3736","state":"VIC","zones":["regional"],"lat":-36.4551,"lng":146.4795,"locality":"MYRTLEFORD"},{"postcode":"3738","state":"VIC","zones":["regional","bushfire","disaster"],"lat":-36.5879,"lng":146.754,"locality":"OVENS"},{"postcode":"3762","state":"VIC","zones":["regional","bushfire","disaster"],"lat":-37.3541,"lng":144.9367,"locality":"BYLANDS"},{"postcode":"3841","state":"VIC","zones":["regional"],"lat":-37.5832,"lng":147.463,"locality":"GIPPSLAND MC"},{"postcode":"3853","state":"VIC","zones":["regional"],"lat":-38.0956,"lng":146.06,"locality":"SALE"},{"postcode":"3893","state":"VIC","zones":["regional","bushfire","disaster"],"lat":-37.4953,"lng":147.8661,"locality":"DOUBLE BRIDGES"},{"postcode":"3946","state":"VIC","zones":["regional","bushfire","disaster"],"lat":-38.4482,"lng":145.7235,"locality":"BENA"},{"postcode":"3964","state":"VIC","zones":["regional","bushfire","disaster"],"lat":-38.6851,"lng":146.2788,"locality":"PORT FRANKLIN"},{"postcode":"3967","state":"VIC","zones":["regional","bushfire","disaster"],"lat":-38.6476,"lng":146.5079,"locality":"HEDLEY"},{"postcode":"3989","state":"VIC","zones":["regional"],"lat":-31.8251,"lng":144.9639,"locality":"ST HELIER"},{"postcode":"3990","state":"VIC","zones":["regional","bushfire","disaster"],"lat":-38.4554,"lng":145.5013,"locality":"GLEN FORBES"},{"postcode":"4314","state":"QLD","zones":["regional","bushfire","disaster"],"lat":-26.8661,"lng":152.1384,"locality":"AVOCA VALE"},{"postcode":"4384","state":"QLD","zones":["regional","bushfire","disaster"],"lat":-28.728,"lng":151.1832,"locality":"LIMEVALE"},{"postcode":"4418","state":"QLD","zones":["remote","regional","disaster"],"lat":-26.2902,"lng":150.1433,"locality":"GULUGUBA"},{"postcode":"4423","state":"QLD","zones":["remote","regional","disaster"],"lat":-27.3838,"lng":149.5254,"locality":"COOMRITH"},{"postcode":"4426","state":"QLD","zones":["remote","regional","bushfire","disaster"],"lat":-26.5399,"lng":149.5904,"locality":"JACKSON"},{"postcode":"4461","state":"QLD","zones":["remote","regional","bushfire","disaster"],"lat":-26.6639,"lng":148.2939,"locality":"MUCKADILLA"},{"postcode":"4467","state":"QLD","zones":["remote","regional","bushfire","disaster"],"lat":-26.3001,"lng":147.4715,"locality":"MUNGALLALA"},{"postcode":"4471","state":"QLD","zones":["regional"],"lat":-27.6311,"lng":145.8922,"locality":"CLAVERTON"},{"postcode":"4474","state":"QLD","zones":["remote","regional","bushfire","disaster"],"lat":-25.667,"lng":144.4953,"locality":"ADAVALE"},{"postcode":"4475","state":"QLD","zones":["remote","regional"],"lat":-26.8449,"lng":144.9754,"locality":"CHEEPIE"},{"postcode":"4479","state":"QLD","zones":["remote","regional","disaster"],"lat":-26.724,"lng":145.3975,"locality":"COOLADDI"},{"postcode":"4482","state":"QLD","zones":["remote","northern","regional"],"lat":-25.6031,"lng":139.3233,"locality":"BIRDSVILLE"},{"postcode":"4489","state":"QLD","zones":["remote","regional","disaster"],"lat":-27.2586,"lng":145.6557,"locality":"WYANDRA"},{"postcode":"4491","state":"QLD","zones":["remote","regional","disaster"],"lat":-27.9158,"lng":145.0837,"locality":"EULO"},{"postcode":"4493","state":"QLD","zones":["remote","regional","bushfire","disaster"],"lat":-28.9417,"lng":144.5604,"locality":"HUNGERFORD"},{"postcode":"4697","state":"QLD","zones":["remote","northern","regional","bushfire","disaster"],"lat":-23.7114,"lng":150.8195,"locality":"RAGLAN"},{"postcode":"4704","state":"QLD","zones":["remote","northern","regional","bushfire"],"lat":-23.1357,"lng":150.3812,"locality":"WATTLEBANK"},{"postcode":"4706","state":"QLD","zones":["remote","northern","regional","bushfire"],"lat":-22.5809,"lng":149.6754,"locality":"OGMORE"},{"postcode":"4732","state":"QLD","zones":["remote","northern","regional"],"lat":-22.4112,"lng":144.5663,"locality":"MUTTABURRA"},{"postcode":"4736","state":"QLD","zones":["remote","northern","regional","disaster"],"lat":-24.9366,"lng":143.1031,"locality":"JUNDAH"},{"postcode":"4892","state":"QLD","zones":["remote","northern","regional","bushfire","disaster"],"lat":-14.6604,"lng":143.3735,"locality":"ABINGDON DOWNS"},{"postcode":"5001","state":"SA","zones":["regional"],"lat":-34.9285,"lng":138.6007,"locality":"ADELAIDE"},{"postcode":"5071","state":"SA","zones":["regional"],"lat":-34.9229,"lng":138.623,"locality":"KENT TOWN"},{"postcode":"5150","state":"SA","zones":["regional"],"lat":-35.0109,"lng":138.6549,"locality":"EAGLE ON THE HILL"},{"postcode":"5273","state":"SA","zones":["regional","bushfire"],"lat":-36.9426,"lng":140.2461,"locality":"AVENUE RANGE"},{"postcode":"5306","state":"SA","zones":["regional","disaster"],"lat":-35.0968,"lng":139.6909,"locality":"WYNARKA"},{"postcode":"5310","state":"SA","zones":["regional","disaster"],"lat":-34.7948,"lng":140.3673,"locality":"CALIPH"},{"postcode":"5418","state":"SA","zones":["regional"],"lat":-33.3573,"lng":139.1438,"locality":"COLLINSVILLE"},{"postcode":"5420","state":"SA","zones":["regional"],"lat":-33.2526,"lng":138.9612,"locality":"CANOWIE BELT"},{"postcode":"5432","state":"SA","zones":["regional"],"lat":-32.0724,"lng":138.7748,"locality":"BARATTA"},{"postcode":"5455","state":"SA","zones":["regional"],"lat":-33.6739,"lng":138.6335,"locality":"HILLTOWN"},{"postcode":"5471","state":"SA","zones":["regional"],"lat":-33.4761,"lng":138.4243,"locality":"GULNARE"},{"postcode":"5493","state":"SA","zones":["regional"],"lat":-33.015,"lng":138.7466,"locality":"YONGALA"},{"postcode":"5611","state":"SA","zones":["remote","regional"],"lat":-32.9422,"lng":137.0225,"locality":"COOYERDOO"},{"postcode":"5632","state":"SA","zones":["remote","regional","bushfire"],"lat":-34.0711,"lng":135.6235,"locality":"KAPINNIE"},{"postcode":"5651","state":"SA","zones":["remote","regional"],"lat":-33.1696,"lng":135.5284,"locality":"KYANCUTTA"},{"postcode":"5653","state":"SA","zones":["remote","regional"],"lat":-32.968,"lng":135.2293,"locality":"YANINEE"},{"postcode":"5655","state":"SA","zones":["remote","regional"],"lat":-32.5927,"lng":135.0027,"locality":"BOCKELBERG"},{"postcode":"5660","state":"SA","zones":["remote","regional"],"lat":-32.5682,"lng":134.5862,"locality":"CHILPENUNDA"},{"postcode":"5661","state":"SA","zones":["remote","regional"],"lat":-32.3494,"lng":134.5955,"locality":"KOOLGERA"},{"postcode":"5671","state":"SA","zones":["remote","regional"],"lat":-33.1449,"lng":134.6017,"locality":"BAIRD BAY"},{"postcode":"5701","state":"SA","zones":["regional"],"lat":-32.5778,"lng":137.961,"locality":"ARKAROOLA VILLAGE"},{"postcode":"5713","state":"SA","zones":["remote","regional"],"lat":-31.7489,"lng":137.6314,"locality":"EMEROO"},{"postcode":"5715","state":"SA","zones":["remote","regional"],"lat":-32.3213,"lng":137.224,"locality":"CARRIEWERLOO"},{"postcode":"5717","state":"SA","zones":["remote","regional"],"lat":-32.0857,"lng":135.9064,"locality":"HILTABA"},{"postcode":"5719","state":"SA","zones":["remote","regional"],"lat":-30.6922,"lng":135.1262,"locality":"BON BON"},{"postcode":"5730","state":"SA","zones":["remote","regional"],"lat":-31.011,"lng":138.5463,"locality":"ALPANA"},{"postcode":"5733","state":"SA","zones":["remote","regional"],"lat":-28.4807,"lng":138.4274,"locality":"ALTON DOWNS STATION"},{"postcode":"5800","state":"SA","zones":["regional"],"lat":-34.9285,"lng":138.6007,"locality":"ADELAIDE"},{"postcode":"5801","state":"SA","zones":["regional"],"lat":-34.9285,"lng":138.6007,"locality":"ADELAIDE"},{"postcode":"5810","state":"SA","zones":["regional"],"lat":-34.9285,"lng":138.6007,"locality":"ADELAIDE"},{"postcode":"5839","state":"SA","zones":["regional"],"lat":-34.9285,"lng":138.6007,"locality":"ADELAIDE"},{"postcode":"5942","state":"SA","zones":["regional"],"lat":-34.86,"lng":138.5659,"locality":"REGENCY PARK"},{"postcode":"6034","state":"WA","zones":["bushfire","disaster"],"lat":-31.5856,"lng":115.6639,"locality":"EGLINTON"},{"postcode":"6038","state":"WA","zones":["bushfire","disaster"],"lat":-32.2891,"lng":115.723,"locality":"ALKIMOS"},{"postcode":"6219","state":"WA","zones":["regional"],"lat":-33.0035,"lng":115.8515,"locality":"COOKERNUP"},{"postcode":"6223","state":"WA","zones":["regional"],"lat":-33.1821,"lng":115.9032,"locality":"BENGER"},{"postcode":"6228","state":"WA","zones":["regional","disaster"],"lat":-33.3381,"lng":115.7765,"locality":"WATERLOO"},{"postcode":"6231","state":"WA","zones":["regional"],"lat":-33.3644,"lng":115.6556,"locality":"BUNBURY"},{"postcode":"6243","state":"WA","zones":["regional"],"lat":-33.6887,"lng":116.2069,"locality":"WILGA"},{"postcode":"6252","state":"WA","zones":["regional"],"lat":-33.7483,"lng":115.9567,"locality":"MULLALYUP"},{"postcode":"6331","state":"WA","zones":["regional"],"lat":-35.0269,"lng":117.884,"locality":"ALBANY DC"},{"postcode":"6332","state":"WA","zones":["regional"],"lat":-33.5367,"lng":116.9292,"locality":"ALBANY"},{"postcode":"6351","state":"WA","zones":["remote","regional"],"lat":-33.1894,"lng":117.9221,"locality":"MOULYINNING"},{"postcode":"6356","state":"WA","zones":["remote","regional"],"lat":-33.043,"lng":119.8528,"locality":"HATTER HILL"},{"postcode":"6357","state":"WA","zones":["remote","regional"],"lat":-32.8097,"lng":118.7242,"locality":"PINGARING"},{"postcode":"6361","state":"WA","zones":["remote","regional"],"lat":-32.9894,"lng":117.7572,"locality":"HARRISMITH"},{"postcode":"6363","state":"WA","zones":["remote","regional"],"lat":-32.9198,"lng":118.0042,"locality":"DUDININ"},{"postcode":"6372","state":"WA","zones":["regional"],"lat":-32.634,"lng":117.7268,"locality":"KIRK ROCK"},{"postcode":"6384","state":"WA","zones":["regional"],"lat":-31.9556,"lng":117.6662,"locality":"PANTAPIN"},{"postcode":"6385","state":"WA","zones":["remote","regional","disaster"],"lat":-31.9021,"lng":117.7473,"locality":"KWOLYIN"},{"postcode":"6411","state":"WA","zones":["regional"],"lat":-31.5505,"lng":117.9053,"locality":"DOODLAKINE"},{"postcode":"6412","state":"WA","zones":["regional"],"lat":-31.6011,"lng":117.9798,"locality":"BAANDEE"},{"postcode":"6414","state":"WA","zones":["regional"],"lat":-31.5268,"lng":118.1678,"locality":"NANGEENAN"},{"postcode":"6419","state":"WA","zones":["remote","regional"],"lat":-32.0312,"lng":118.0978,"locality":"ARDATH"},{"postcode":"6420","state":"WA","zones":["remote","regional"],"lat":-31.7483,"lng":118.7183,"locality":"CRAMPHORNE"},{"postcode":"6422","state":"WA","zones":["remote","regional"],"lat":-31.3841,"lng":118.5644,"locality":"WALGOOLAN"},{"postcode":"6424","state":"WA","zones":["remote","regional"],"lat":-31.2963,"lng":118.8963,"locality":"BODALLIN"},{"postcode":"6427","state":"WA","zones":["remote","regional"],"lat":-30.8506,"lng":119.5409,"locality":"KOOLYANOBBING"},{"postcode":"6428","state":"WA","zones":["remote","regional"],"lat":-32.142,"lng":118.0205,"locality":"BABAKIN"},{"postcode":"6433","state":"WA","zones":["regional","disaster"],"lat":-30.7574,"lng":121.4791,"locality":"HANNANS"},{"postcode":"6435","state":"WA","zones":["regional"],"lat":-28.2193,"lng":120.4488,"locality":"AGNEW"},{"postcode":"6446","state":"WA","zones":["remote","regional"],"lat":-33.2234,"lng":121.6823,"locality":"GRASS PATCH"},{"postcode":"6452","state":"WA","zones":["remote","regional"],"lat":-32.9183,"lng":122.895,"locality":"BURAMINYA"},{"postcode":"6463","state":"WA","zones":["regional"],"lat":-31.1265,"lng":117.2493,"locality":"BENJABERRING"},{"postcode":"6465","state":"WA","zones":["regional"],"lat":-30.86,"lng":117.0712,"locality":"MANMANNING"},{"postcode":"6466","state":"WA","zones":["remote","regional"],"lat":-30.7191,"lng":117.1004,"locality":"CADOUX"},{"postcode":"6467","state":"WA","zones":["remote","regional"],"lat":-30.5613,"lng":117.1534,"locality":"BURAKIN"},{"postcode":"6470","state":"WA","zones":["remote","regional"],"lat":-30.4664,"lng":117.287,"locality":"KULJA"},{"postcode":"6473","state":"WA","zones":["remote","regional"],"lat":-30.489,"lng":118.1335,"locality":"NORTH WIALKI"},{"postcode":"6476","state":"WA","zones":["remote","regional"],"lat":-30.7649,"lng":117.6792,"locality":"GABBIN"},{"postcode":"6480","state":"WA","zones":["remote","regional"],"lat":-31.2901,"lng":118.2206,"locality":"NUKARNI"},{"postcode":"6487","state":"WA","zones":["remote","regional"],"lat":-31.1683,"lng":117.6601,"locality":"NORTH YELBENI"},{"postcode":"6489","state":"WA","zones":["remote","regional"],"lat":-31.1233,"lng":117.9456,"locality":"KUNUNOPPIN"},{"postcode":"6504","state":"WA","zones":["regional"],"lat":-31.3108,"lng":116.0423,"locality":"MOOLIABEENEE"},{"postcode":"6506","state":"WA","zones":["regional"],"lat":-31.0703,"lng":116.1103,"locality":"MOGUMBER"},{"postcode":"6512","state":"WA","zones":["regional"],"lat":-30.4467,"lng":116.0702,"locality":"COOMBERDALE"},{"postcode":"6531","state":"WA","zones":["regional"],"lat":-30.5261,"lng":115.1763,"locality":"GERALDTON"},{"postcode":"6571","state":"WA","zones":["regional"],"lat":-30.9404,"lng":116.3966,"locality":"YERECOIN"},{"postcode":"6572","state":"WA","zones":["regional"],"lat":-30.8047,"lng":116.3963,"locality":"PIAWANING"},{"postcode":"6574","state":"WA","zones":["regional"],"lat":-30.6509,"lng":116.4252,"locality":"BINDI BINDI"},{"postcode":"6605","state":"WA","zones":["remote","regional"],"lat":-30.7302,"lng":116.763,"locality":"KONDUT"},{"postcode":"6613","state":"WA","zones":["remote","regional"],"lat":-29.9626,"lng":116.5236,"locality":"BUNTINE"},{"postcode":"6614","state":"WA","zones":["remote","regional"],"lat":-29.8888,"lng":116.5519,"locality":"MAYA"},{"postcode":"6616","state":"WA","zones":["remote","regional"],"lat":-29.7669,"lng":116.4342,"locality":"LATHAM"},{"postcode":"6625","state":"WA","zones":["remote","regional"],"lat":-29.1074,"lng":115.9467,"locality":"MERKANOOKA"},{"postcode":"6627","state":"WA","zones":["remote","regional"],"lat":-28.8505,"lng":115.902,"locality":"CANNA"},{"postcode":"6631","state":"WA","zones":["remote","regional","bushfire","disaster"],"lat":-28.4637,"lng":115.7554,"locality":"PINDAR"},{"postcode":"6632","state":"WA","zones":["remote","regional","bushfire","disaster"],"lat":-28.6199,"lng":115.3384,"locality":"AMBANIA"},{"postcode":"6711","state":"WA","zones":["northern","regional"],"lat":-21.4619,"lng":115.0011,"locality":"THEVENARD ISLAND"},{"postcode":"6712","state":"WA","zones":["northern","regional","disaster"],"lat":-20.7858,"lng":115.4073,"locality":"BARROW ISLAND"},{"postcode":"6723","state":"WA","zones":["regional"],"lat":-20.2103,"lng":119.7275,"locality":"GOLDSWORTHY"},{"postcode":"6731","state":"WA","zones":["remote","regional"],"lat":-16.0986,"lng":123.6105,"locality":"COCKATOO ISLAND"},{"postcode":"6733","state":"WA","zones":["remote","regional"],"lat":-16.1349,"lng":123.754,"locality":"KOOLAN ISLAND"},{"postcode":"6761","state":"WA","zones":["regional"],"lat":-20.4036,"lng":120.47,"locality":"SHAY GAP"},{"postcode":"7001","state":"TAS","zones":["regional","disaster"],"lat":-43.5359,"lng":146.3561,"locality":"HOBART"},{"postcode":"7002","state":"TAS","zones":["regional","disaster"],"lat":-42.8997,"lng":147.4463,"locality":"NORTH HOBART"},{"postcode":"7006","state":"TAS","zones":["regional","disaster"],"lat":-42.9081,"lng":147.3444,"locality":"SANDY BAY"},{"postcode":"7051","state":"TAS","zones":["regional","disaster"],"lat":-42.9874,"lng":147.3272,"locality":"KINGSTON"},{"postcode":"7119","state":"TAS","zones":["regional","bushfire","disaster"],"lat":-42.4319,"lng":147.3654,"locality":"STONOR"},{"postcode":"7139","state":"TAS","zones":["remote","regional","disaster"],"lat":-42.7155,"lng":145.9253,"locality":"STRATHGORDON"},{"postcode":"7151","state":"TAS","zones":["regional","disaster"],"lat":-41.5187,"lng":146.6427,"locality":"CASEY"},{"postcode":"7174","state":"TAS","zones":["regional","disaster"],"lat":-42.8077,"lng":147.7433,"locality":"COPPING"},{"postcode":"7175","state":"TAS","zones":["regional","disaster"],"lat":-42.8186,"lng":147.8286,"locality":"BREAM CREEK"},{"postcode":"7185","state":"TAS","zones":["regional","disaster"],"lat":-43.0629,"lng":147.7538,"locality":"PREMAYDENA"},{"postcode":"7187","state":"TAS","zones":["regional","disaster"],"lat":-43.0277,"lng":147.848,"locality":"KOONYA"},{"postcode":"7466","state":"TAS","zones":["remote","regional","disaster"],"lat":-42.2913,"lng":145.8075,"locality":"GORMANSTON"}]