[{"postcode":"0801","state":"NT","lat":-12.4587,"lng":130.8367,"locality":"DARWIN"},{"postcode":"0803","state":"NT","lat":-12.434,"lng":130.7459,"locality":"WAGAIT BEACH"},{"postcode":"0804","state":"NT","lat":-12.428,"lng":130.8733,"locality":"PARAP"},{"postcode":"0811","state":"NT","lat":-12.3818,"lng":130.8662,"locality":"CASUARINA"},{"postcode":"0813","state":"NT","lat":-12.4048,"lng":130.9161,"locality":"KARAMA"},{"postcode":"0814","state":"NT","lat":-12.3818,"lng":130.8662,"locality":"NIGHTCLIFF"},{"postcode":"0815","state":"NT","lat":-12.3718,"lng":130.869,"locality":"CHARLES DARWIN UNIVERSITY"},{"postcode":"0821","state":"NT","lat":-13.6433,"lng":136.9471,"locality":"WINNELLIE"},{"postcode":"0831","state":"NT","lat":-12.4751,"lng":130.9749,"locality":"PALMERSTON"},{"postcode":"0834","state":"NT","lat":-12.5469,"lng":131.0235,"locality":"VIRGINIA"},{"postcode":"0839","state":"NT","lat":-12.52,"lng":131.0402,"locality":"COOLALINGA"},{"postcode":"0851","state":"NT","lat":-15.7114,"lng":137.0507,"locality":"KATHERINE"},{"postcode":"0861","state":"NT","lat":-18.563,"lng":134.4818,"locality":"BRUNCHILLY"},{"postcode":"0871","state":"NT","lat":-21.9495,"lng":131.2988,"locality":"ALICE SPRINGS"},{"postcode":"0873","state":"NT","lat":-23.7447,"lng":133.905,"locality":"AMOONGUNA"},{"postcode":"0874","state":"NT","lat":-23.685,"lng":133.8999,"locality":"IRLPME"},{"postcode":"0875","state":"NT","lat":-23.6969,"lng":133.8333,"locality":"FLYNN"},{"postcode":"0881","state":"NT","lat":-11.6704,"lng":136.8249,"locality":"NHULUNBUY"},{"postcode":"0906","state":"NT","lat":-13.6433,"lng":136.9471,"locality":"WINNELLIE"},{"postcode":"0907","state":"NT","lat":-13.6433,"lng":136.9471,"locality":"WINNELLIE"},{"postcode":"0909","state":"NT","lat":-12.3718,"lng":130.869,"locality":"CHARLES DARWIN UNIVERSITY"},{"postcode":"2356","state":"NSW","lat":-30.6198,"lng":148.9695,"locality":"GWABEGAR"},{"postcode":"2387","state":"NSW","lat":-29.7768,"lng":149.0097,"locality":"BULYEROI"},{"postcode":"2826","state":"NSW","lat":-31.9423,"lng":147.5675,"locality":"BOGAN"},{"postcode":"2838","state":"NSW","lat":-29.3107,"lng":147.404,"locality":"GOODOOGA"},{"postcode":"2899","state":"NSW","lat":-36.0842,"lng":146.9288,"locality":"NORFOLK ISLAND"},{"postcode":"3506","state":"VIC","lat":-35.2042,"lng":141.3859,"locality":"COWANGIE"},{"postcode":"4418","state":"QLD","lat":-26.2902,"lng":150.1433,"locality":"GULUGUBA"},{"postcode":"4423","state":"QLD","lat":-27.3838,"lng":149.5254,"locality":"COOMRITH"},{"postcode":"4426","state":"QLD","lat":-26.5399,"lng":149.5904,"locality":"JACKSON"},{"postcode":"4461","state":"QLD","lat":-26.6639,"lng":148.2939,"locality":"MUCKADILLA"},{"postcode":"4467","state":"QLD","lat":-26.3001,"lng":147.4715,"locality":"MUNGALLALA"},{"postcode":"4474","state":"QLD","lat":-25.667,"lng":144.4953,"locality":"ADAVALE"},{"postcode":"4475","state":"QLD","lat":-26.8449,"lng":144.9754,"locality":"CHEEPIE"},{"postcode":"4479","state":"QLD","lat":-26.724,"lng":145.3975,"locality":"COOLADDI"},{"postcode":"4482","state":"QLD","lat":-25.6031,"lng":139.3233,"locality":"BIRDSVILLE"},{"postcode":"4489","state":"QLD","lat":-27.2586,"lng":145.6557,"locality":"WYANDRA"},{"postcode":"4491","state":"QLD","lat":-27.9158,"lng":145.0837,"locality":"EULO"},{"postcode":"4493","state":"QLD","lat":-28.9417,"lng":144.5604,"locality":"HUNGERFORD"},{"postcode":"4697","state":"QLD","lat":-23.7114,"lng":150.8195,"locality":"RAGLAN"},{"postcode":"4704","state":"QLD","lat":-23.1357,"lng":150.3812,"locality":"WATTLEBANK"},{"postcode":"4706","state":"QLD","lat":-22.5809,"lng":149.6754,"locality":"OGMORE"},{"postcode":"4732","state":"QLD","lat":-22.4112,"lng":144.5663,"locality":"MUTTABURRA"},{"postcode":"4736","state":"QLD","lat":-24.9366,"lng":143.1031,"locality":"JUNDAH"},{"postcode":"4892","state":"QLD","lat":-14.6604,"lng":143.3735,"locality":"ABINGDON DOWNS"},{"postcode":"5611","state":"SA","lat":-32.9422,"lng":137.0225,"locality":"COOYERDOO"},{"postcode":"5632","state":"SA","lat":-34.0711,"lng":135.6235,"locality":"KAPINNIE"},{"postcode":"5651","state":"SA","lat":-33.1696,"lng":135.5284,"locality":"KYANCUTTA"},{"postcode":"5653","state":"SA","lat":-32.968,"lng":135.2293,"locality":"YANINEE"},{"postcode":"5655","state":"SA","lat":-32.5927,"lng":135.0027,"locality":"BOCKELBERG"},{"postcode":"5660","state":"SA","lat":-32.5682,"lng":134.5862,"locality":"CHILPENUNDA"},{"postcode":"5661","state":"SA","lat":-32.3494,"lng":134.5955,"locality":"KOOLGERA"},{"postcode":"5671","state":"SA","lat":-33.1449,"lng":134.6017,"locality":"BAIRD BAY"},{"postcode":"5713","state":"SA","lat":-31.7489,"lng":137.6314,"locality":"EMEROO"},{"postcode":"5715","state":"SA","lat":-32.3213,"lng":137.224,"locality":"CARRIEWERLOO"},{"postcode":"5717","state":"SA","lat":-32.0857,"lng":135.9064,"locality":"HILTABA"},{"postcode":"5719","state":"SA","lat":-30.6922,"lng":135.1262,"locality":"BON BON"},{"postcode":"5730","state":"SA","lat":-31.011,"lng":138.5463,"locality":"ALPANA"},{"postcode":"5733","state":"SA","lat":-28.4807,"lng":138.4274,"locality":"ALTON DOWNS STATION"},{"postcode":"6351","state":"WA","lat":-33.1894,"lng":117.9221,"locality":"MOULYINNING"},{"postcode":"6356","state":"WA","lat":-33.043,"lng":119.8528,"locality":"HATTER HILL"},{"postcode":"6357","state":"WA","lat":-32.8097,"lng":118.7242,"locality":"PINGARING"},{"postcode":"6361","state":"WA","lat":-32.9894,"lng":117.7572,"locality":"HARRISMITH"},{"postcode":"6363","state":"WA","lat":-32.9198,"lng":118.0042,"locality":"DUDININ"},{"postcode":"6385","state":"WA","lat":-31.9021,"lng":117.7473,"locality":"KWOLYIN"},{"postcode":"6419","state":"WA","lat":-32.0312,"lng":118.0978,"locality":"ARDATH"},{"postcode":"6420","state":"WA","lat":-31.7483,"lng":118.7183,"locality":"CRAMPHORNE"},{"postcode":"6422","state":"WA","lat":-31.3841,"lng":118.5644,"locality":"WALGOOLAN"},{"postcode":"6424","state":"WA","lat":-31.2963,"lng":118.8963,"locality":"BODALLIN"},{"postcode":"6427","state":"WA","lat":-30.8506,"lng":119.5409,"locality":"KOOLYANOBBING"},{"postcode":"6428","state":"WA","lat":-32.142,"lng":118.0205,"locality":"BABAKIN"},{"postcode":"6446","state":"WA","lat":-33.2234,"lng":121.6823,"locality":"GRASS PATCH"},{"postcode":"6452","state":"WA","lat":-32.9183,"lng":122.895,"locality":"BURAMINYA"},{"postcode":"6466","state":"WA","lat":-30.7191,"lng":117.1004,"locality":"CADOUX"},{"postcode":"6467","state":"WA","lat":-30.5613,"lng":117.1534,"locality":"BURAKIN"},{"postcode":"6470","state":"WA","lat":-30.4664,"lng":117.287,"locality":"KULJA"},{"postcode":"6473","state":"WA","lat":-30.489,"lng":118.1335,"locality":"NORTH WIALKI"},{"postcode":"6476","state":"WA","lat":-30.7649,"lng":117.6792,"locality":"GABBIN"},{"postcode":"6480","state":"WA","lat":-31.2901,"lng":118.2206,"locality":"NUKARNI"},{"postcode":"6487","state":"WA","lat":-31.1683,"lng":117.6601,"locality":"NORTH YELBENI"},{"postcode":"6489","state":"WA","lat":-31.1233,"lng":117.9456,"locality":"KUNUNOPPIN"},{"postcode":"6605","state":"WA","lat":-30.7302,"lng":116.763,"locality":"KONDUT"},{"postcode":"6613","state":"WA","lat":-29.9626,"lng":116.5236,"locality":"BUNTINE"},{"postcode":"6614","state":"WA","lat":-29.8888,"lng":116.5519,"locality":"MAYA"},{"postcode":"6616","state":"WA","lat":-29.7669,"lng":116.4342,"locality":"LATHAM"},{"postcode":"6625","state":"WA","lat":-29.1074,"lng":115.9467,"locality":"MERKANOOKA"},{"postcode":"6627","state":"WA","lat":-28.8505,"lng":115.902,"locality":"CANNA"},{"postcode":"6631","state":"WA","lat":-28.4637,"lng":115.7554,"locality":"PINDAR"},{"postcode":"6632","state":"WA","lat":-28.6199,"lng":115.3384,"locality":"AMBANIA"},{"postcode":"6731","state":"WA","lat":-16.0986,"lng":123.6105,"locality":"COCKATOO ISLAND"},{"postcode":"6733","state":"WA","lat":-16.1349,"lng":123.754,"locality":"KOOLAN ISLAND"},{"postcode":"7139","state":"TAS","lat":-42.7155,"lng":145.9253,"locality":"STRATHGORDON"},{"postcode":"7466","state":"TAS","lat":-42.2913,"lng":145.8075,"locality":"GORMANSTON"}]